[
    {
        "city_name": "Delhi",
        "lat": 28.6516,
        "lon": 77.2232,
        "time_captured": 1754915230,
        "temp": 32.66,
        "feels_like": 35.35,
        "temp_min": 32.66,
        "temp_max": 32.66,
        "pressure": 1001,
        "humidity": 49,
        "sea_level": 1001,
        "grnd_level": 976,
        "sunrise": 1754871486,
        "sunset": 1754919283,
        "wind_speed": 3.91,
        "wind_degree": 84,
        "wind_gust": 3.59
    },
    {
        "city_name": "Mumbai",
        "lat": 19.0785,
        "lon": 72.8782,
        "time_captured": 1754915130,
        "temp": 29.08,
        "feels_like": 32.9,
        "temp_min": 29.08,
        "temp_max": 29.08,
        "pressure": 1007,
        "humidity": 70,
        "sea_level": 1007,
        "grnd_level": 1005,
        "sunrise": 1754873307,
        "sunset": 1754919548,
        "wind_speed": 4.89,
        "wind_degree": 265,
        "wind_gust": 5.65
    },
    {
        "city_name": "Chennai",
        "lat": 13.0837,
        "lon": 80.2702,
        "time_captured": 1754914822,
        "temp": 31.5,
        "feels_like": 37.38,
        "temp_min": 31.5,
        "temp_max": 31.5,
        "pressure": 1005,
        "humidity": 65,
        "sea_level": 1005,
        "grnd_level": 1004,
        "sunrise": 1754871967,
        "sunset": 1754917340,
        "wind_speed": 7.03,
        "wind_degree": 270,
        "wind_gust": 8.79
    },
    {
        "city_name": "Kolkata",
        "lat": 22.5414,
        "lon": 88.3577,
        "time_captured": 1754915254,
        "temp": 31.52,
        "feels_like": 37.74,
        "temp_min": 31.52,
        "temp_max": 31.52,
        "pressure": 1001,
        "humidity": 66,
        "sea_level": 1001,
        "grnd_level": 1001,
        "sunrise": 1754869324,
        "sunset": 1754916101,
        "wind_speed": 4.22,
        "wind_degree": 182,
        "wind_gust": 4.75
    },
    {
        "city_name": "Bangalore",
        "lat": 12.9753,
        "lon": 77.591,
        "time_captured": 1754915307,
        "temp": 24.08,
        "feels_like": 24.42,
        "temp_min": 24.08,
        "temp_max": 24.08,
        "pressure": 1009,
        "humidity": 72,
        "sea_level": 1009,
        "grnd_level": 912,
        "sunrise": 1754872618,
        "sunset": 1754917975,
        "wind_speed": 5.23,
        "wind_degree": 292,
        "wind_gust": 6.48
    },
    {
        "city_name": "Hyderabad",
        "lat": 17.3606,
        "lon": 78.4741,
        "time_captured": 1754915409,
        "temp": 25.69,
        "feels_like": 26.3,
        "temp_min": 25.69,
        "temp_max": 25.69,
        "pressure": 1007,
        "humidity": 76,
        "sea_level": 1007,
        "grnd_level": 944,
        "sunrise": 1754872091,
        "sunset": 1754918078,
        "wind_speed": 4.81,
        "wind_degree": 285,
        "wind_gust": 7.83
    },
    {
        "city_name": "Ahmedabad",
        "lat": 23.0216,
        "lon": 72.5797,
        "time_captured": 1754915068,
        "temp": 32.25,
        "feels_like": 34.58,
        "temp_min": 32.25,
        "temp_max": 32.25,
        "pressure": 1004,
        "humidity": 49,
        "sea_level": 1004,
        "grnd_level": 999,
        "sunrise": 1754873073,
        "sunset": 1754919924,
        "wind_speed": 3.25,
        "wind_degree": 234,
        "wind_gust": 4.83
    },
    {
        "city_name": "Pune",
        "lat": 18.5211,
        "lon": 73.8502,
        "time_captured": 1754915400,
        "temp": 26.73,
        "feels_like": 28.77,
        "temp_min": 26.73,
        "temp_max": 26.73,
        "pressure": 1009,
        "humidity": 75,
        "sea_level": 1009,
        "grnd_level": 936,
        "sunrise": 1754873115,
        "sunset": 1754919273,
        "wind_speed": 4.29,
        "wind_degree": 268,
        "wind_gust": 6.74
    },
    {
        "city_name": "Jaipur",
        "lat": 26.9167,
        "lon": 75.8167,
        "time_captured": 1754914904,
        "temp": 29.37,
        "feels_like": 30.72,
        "temp_min": 29.37,
        "temp_max": 29.37,
        "pressure": 1002,
        "humidity": 54,
        "sea_level": 1002,
        "grnd_level": 956,
        "sunrise": 1754871975,
        "sunset": 1754919469,
        "wind_speed": 3.75,
        "wind_degree": 244,
        "wind_gust": 5.96
    },
    {
        "city_name": "Lucknow",
        "lat": 26.8381,
        "lon": 80.9346,
        "time_captured": 1754915274,
        "temp": 29.16,
        "feels_like": 36.16,
        "temp_min": 29.16,
        "temp_max": 29.16,
        "pressure": 1001,
        "humidity": 89,
        "sea_level": 1001,
        "grnd_level": 987,
        "sunrise": 1754870753,
        "sunset": 1754918235,
        "wind_speed": 1.54,
        "wind_degree": 27,
        "wind_gust": 1.65
    }
]