[
    {
        "city_name": "Delhi",
        "lat": 28.6517,
        "lon": 77.2219,
        "time_captured": 1754799810,
        "temp": 27.76,
        "feels_like": 31.23,
        "temp_min": 27.76,
        "temp_max": 27.76,
        "pressure": 1007,
        "humidity": 78,
        "sea_level": 1007,
        "grnd_level": 980,
        "sunrise": 1754785052,
        "sunset": 1754832934,
        "wind_speed": 1.6,
        "wind_degree": 2,
        "wind_gust": 2.24
    },
    {
        "city_name": "Mumbai",
        "lat": 19.0785,
        "lon": 72.8782,
        "time_captured": 1754799161,
        "temp": 28.03,
        "feels_like": 33.49,
        "temp_min": 28.03,
        "temp_max": 28.03,
        "pressure": 1009,
        "humidity": 88,
        "sea_level": 1009,
        "grnd_level": 1008,
        "sunrise": 1754786888,
        "sunset": 1754833183,
        "wind_speed": 2.98,
        "wind_degree": 175,
        "wind_gust": 2.77
    },
    {
        "city_name": "Chennai",
        "lat": 13.0837,
        "lon": 80.2702,
        "time_captured": 1754799752,
        "temp": 29.29,
        "feels_like": 33.37,
        "temp_min": 29.29,
        "temp_max": 29.29,
        "pressure": 1009,
        "humidity": 70,
        "sea_level": 1009,
        "grnd_level": 1009,
        "sunrise": 1754785557,
        "sunset": 1754830966,
        "wind_speed": 5.08,
        "wind_degree": 235,
        "wind_gust": 6.16
    },
    {
        "city_name": "Kolkata",
        "lat": 22.5414,
        "lon": 88.3577,
        "time_captured": 1754799541,
        "temp": 32.12,
        "feels_like": 37.99,
        "temp_min": 32.12,
        "temp_max": 32.12,
        "pressure": 1007,
        "humidity": 62,
        "sea_level": 1007,
        "grnd_level": 1006,
        "sunrise": 1754782900,
        "sunset": 1754829742,
        "wind_speed": 3.52,
        "wind_degree": 215,
        "wind_gust": 3.66
    },
    {
        "city_name": "Bangalore",
        "lat": 12.9753,
        "lon": 77.591,
        "time_captured": 1754799435,
        "temp": 26.14,
        "feels_like": 26.14,
        "temp_min": 26.14,
        "temp_max": 26.14,
        "pressure": 1014,
        "humidity": 75,
        "sea_level": 1014,
        "grnd_level": 916,
        "sunrise": 1754786208,
        "sunset": 1754831601,
        "wind_speed": 2.96,
        "wind_degree": 245,
        "wind_gust": 4.04
    },
    {
        "city_name": "Hyderabad",
        "lat": 17.3606,
        "lon": 78.4741,
        "time_captured": 1754799489,
        "temp": 26.53,
        "feels_like": 26.53,
        "temp_min": 26.53,
        "temp_max": 26.53,
        "pressure": 1012,
        "humidity": 83,
        "sea_level": 1012,
        "grnd_level": 947,
        "sunrise": 1754785675,
        "sunset": 1754831710,
        "wind_speed": 1.5,
        "wind_degree": 277,
        "wind_gust": 1.34
    },
    {
        "city_name": "Ahmedabad",
        "lat": 23.0216,
        "lon": 72.5797,
        "time_captured": 1754799319,
        "temp": 29.36,
        "feels_like": 32,
        "temp_min": 29.36,
        "temp_max": 29.36,
        "pressure": 1008,
        "humidity": 62,
        "sea_level": 1008,
        "grnd_level": 1003,
        "sunrise": 1754786649,
        "sunset": 1754833566,
        "wind_speed": 4.42,
        "wind_degree": 265,
        "wind_gust": 5.28
    },
    {
        "city_name": "Pune",
        "lat": 18.5211,
        "lon": 73.8502,
        "time_captured": 1754799278,
        "temp": 28.32,
        "feels_like": 31.76,
        "temp_min": 28.32,
        "temp_max": 28.32,
        "pressure": 1011,
        "humidity": 73,
        "sea_level": 1011,
        "grnd_level": 938,
        "sunrise": 1754786698,
        "sunset": 1754832907,
        "wind_speed": 2.46,
        "wind_degree": 269,
        "wind_gust": 3.24
    },
    {
        "city_name": "Jaipur",
        "lat": 26.9167,
        "lon": 75.8167,
        "time_captured": 1754799086,
        "temp": 30.05,
        "feels_like": 34.45,
        "temp_min": 30.05,
        "temp_max": 30.05,
        "pressure": 1008,
        "humidity": 67,
        "sea_level": 1008,
        "grnd_level": 960,
        "sunrise": 1754785544,
        "sunset": 1754833117,
        "wind_speed": 5.42,
        "wind_degree": 284,
        "wind_gust": 5.99
    },
    {
        "city_name": "Lucknow",
        "lat": 26.8381,
        "lon": 80.9346,
        "time_captured": 1754799617,
        "temp": 30.81,
        "feels_like": 37.81,
        "temp_min": 30.81,
        "temp_max": 30.81,
        "pressure": 1006,
        "humidity": 80,
        "sea_level": 1006,
        "grnd_level": 992,
        "sunrise": 1754784322,
        "sunset": 1754831883,
        "wind_speed": 3.06,
        "wind_degree": 237,
        "wind_gust": 3.92
    }
]