[
    {
        "city_name": "Delhi",
        "lat": 28.6517,
        "lon": 77.2219,
        "time_captured": 1754742756,
        "temp": 30.15,
        "feels_like": 36.18,
        "temp_min": 30.15,
        "temp_max": 30.15,
        "pressure": 1004,
        "humidity": 73,
        "sea_level": 1004,
        "grnd_level": 979,
        "sunrise": 1754698618,
        "sunset": 1754746584,
        "wind_speed": 1.99,
        "wind_degree": 334,
        "wind_gust": 3.13
    },
    {
        "city_name": "Mumbai",
        "lat": 19.0785,
        "lon": 72.8782,
        "time_captured": 1754742941,
        "temp": 28.94,
        "feels_like": 33.75,
        "temp_min": 28.94,
        "temp_max": 28.94,
        "pressure": 1008,
        "humidity": 76,
        "sea_level": 1008,
        "grnd_level": 1007,
        "sunrise": 1754700470,
        "sunset": 1754746817,
        "wind_speed": 3.91,
        "wind_degree": 264,
        "wind_gust": 3.95
    },
    {
        "city_name": "Chennai",
        "lat": 13.0837,
        "lon": 80.2702,
        "time_captured": 1754742631,
        "temp": 29.74,
        "feels_like": 36.1,
        "temp_min": 29.74,
        "temp_max": 29.74,
        "pressure": 1007,
        "humidity": 77,
        "sea_level": 1007,
        "grnd_level": 1006,
        "sunrise": 1754699147,
        "sunset": 1754744592,
        "wind_speed": 6.17,
        "wind_degree": 176,
        "wind_gust": 6.57
    },
    {
        "city_name": "Kolkata",
        "lat": 22.5414,
        "lon": 88.3577,
        "time_captured": 1754742835,
        "temp": 29.84,
        "feels_like": 34.42,
        "temp_min": 29.84,
        "temp_max": 29.84,
        "pressure": 1006,
        "humidity": 69,
        "sea_level": 1006,
        "grnd_level": 1005,
        "sunrise": 1754696476,
        "sunset": 1754743382,
        "wind_speed": 5.09,
        "wind_degree": 193,
        "wind_gust": 7.54
    },
    {
        "city_name": "Bangalore",
        "lat": 12.9768,
        "lon": 77.5901,
        "time_captured": 1754742625,
        "temp": 26.74,
        "feels_like": 28.57,
        "temp_min": 26.74,
        "temp_max": 26.74,
        "pressure": 1010,
        "humidity": 72,
        "sea_level": 1010,
        "grnd_level": 913,
        "sunrise": 1754699798,
        "sunset": 1754745227,
        "wind_speed": 2.28,
        "wind_degree": 287,
        "wind_gust": 2.83
    },
    {
        "city_name": "Hyderabad",
        "lat": 17.3606,
        "lon": 78.4741,
        "time_captured": 1754742396,
        "temp": 28.27,
        "feels_like": 30.5,
        "temp_min": 28.27,
        "temp_max": 28.27,
        "pressure": 1009,
        "humidity": 65,
        "sea_level": 1009,
        "grnd_level": 945,
        "sunrise": 1754699259,
        "sunset": 1754745342,
        "wind_speed": 4.5,
        "wind_degree": 339,
        "wind_gust": 5.53
    },
    {
        "city_name": "Ahmedabad",
        "lat": 23.0216,
        "lon": 72.5797,
        "time_captured": 1754742945,
        "temp": 32.06,
        "feels_like": 34.47,
        "temp_min": 32.06,
        "temp_max": 32.06,
        "pressure": 1006,
        "humidity": 50,
        "sea_level": 1006,
        "grnd_level": 1001,
        "sunrise": 1754700224,
        "sunset": 1754747206,
        "wind_speed": 1.13,
        "wind_degree": 266,
        "wind_gust": 1.92
    },
    {
        "city_name": "Pune",
        "lat": 18.5211,
        "lon": 73.8502,
        "time_captured": 1754742574,
        "temp": 24.4,
        "feels_like": 25.14,
        "temp_min": 24.4,
        "temp_max": 24.4,
        "pressure": 1010,
        "humidity": 86,
        "sea_level": 1010,
        "grnd_level": 937,
        "sunrise": 1754700280,
        "sunset": 1754746541,
        "wind_speed": 1.99,
        "wind_degree": 238,
        "wind_gust": 3.27
    },
    {
        "city_name": "Jaipur",
        "lat": 26.9155,
        "lon": 75.819,
        "time_captured": 1754742717,
        "temp": 27.89,
        "feels_like": 31.54,
        "temp_min": 27.89,
        "temp_max": 27.89,
        "pressure": 1006,
        "humidity": 78,
        "sea_level": 1006,
        "grnd_level": 959,
        "sunrise": 1754699112,
        "sunset": 1754746763,
        "wind_speed": 2.99,
        "wind_degree": 164,
        "wind_gust": 2.93
    },
    {
        "city_name": "Lucknow",
        "lat": 26.8381,
        "lon": 80.9346,
        "time_captured": 1754742682,
        "temp": 29.03,
        "feels_like": 35.27,
        "temp_min": 29.03,
        "temp_max": 29.03,
        "pressure": 1004,
        "humidity": 82,
        "sea_level": 1004,
        "grnd_level": 990,
        "sunrise": 1754697891,
        "sunset": 1754745530,
        "wind_speed": 1.8,
        "wind_degree": 176,
        "wind_gust": 2.29
    }
]